<?xml version="1.0" encoding="UTF-8"?>
<kml xmlns="http://earth.google.com/kml/2.1">
<Document>
	<name><![CDATA[Operation Cresset]]></name>
	<open>1</open>
		<Placemark>
			<name><![CDATA[Bobstay]]></name>
			<Point>
				<coordinates>-116.01741,37.00759,0</coordinates>
			</Point>
			<Snippet></Snippet>
			<description><![CDATA[<br>Source: Wikipedia article <a href="https://en.wikipedia.org/wiki/Operation_Cresset#Bobstay">Operation Cresset</a>]]></description>
		</Placemark>
		<Placemark>
			<name><![CDATA[Hybla Gold]]></name>
			<Point>
				<coordinates>-116.21384,37.18773,0</coordinates>
			</Point>
			<Snippet></Snippet>
			<description><![CDATA[<br>Source: Wikipedia article <a href="https://en.wikipedia.org/wiki/Operation_Cresset#Hybla_Gold">Operation Cresset</a>]]></description>
		</Placemark>
		<Placemark>
			<name><![CDATA[Sandreef]]></name>
			<Point>
				<coordinates>-116.05115,37.07217,0</coordinates>
			</Point>
			<Snippet></Snippet>
			<description><![CDATA[<br>Source: Wikipedia article <a href="https://en.wikipedia.org/wiki/Operation_Cresset#Sandreef">Operation Cresset</a>]]></description>
		</Placemark>
		<Placemark>
			<name><![CDATA[Seamount]]></name>
			<Point>
				<coordinates>-116.02584,37.02055,0</coordinates>
			</Point>
			<Snippet></Snippet>
			<description><![CDATA[<br>Source: Wikipedia article <a href="https://en.wikipedia.org/wiki/Operation_Cresset#Seamount">Operation Cresset</a>]]></description>
		</Placemark>
		<Placemark>
			<name><![CDATA[Rib]]></name>
			<Point>
				<coordinates>-116.01864,37.01752,0</coordinates>
			</Point>
			<Snippet></Snippet>
			<description><![CDATA[<br>Source: Wikipedia article <a href="https://en.wikipedia.org/wiki/Operation_Cresset#Rib">Operation Cresset</a>]]></description>
		</Placemark>
		<Placemark>
			<name><![CDATA[Farallones]]></name>
			<Point>
				<coordinates>-116.08658,37.13573,0</coordinates>
			</Point>
			<Snippet></Snippet>
			<description><![CDATA[<br>Source: Wikipedia article <a href="https://en.wikipedia.org/wiki/Operation_Cresset#Farallones">Operation Cresset</a>]]></description>
		</Placemark>
		<Placemark>
			<name><![CDATA[Campos]]></name>
			<Point>
				<coordinates>-116.03261,37.12607,0</coordinates>
			</Point>
			<Snippet></Snippet>
			<description><![CDATA[<br>Source: Wikipedia article <a href="https://en.wikipedia.org/wiki/Operation_Cresset#Campos">Operation Cresset</a>]]></description>
		</Placemark>
		<Placemark>
			<name><![CDATA[Reblochon]]></name>
			<Point>
				<coordinates>-116.0647,37.12363,0</coordinates>
			</Point>
			<Snippet></Snippet>
			<description><![CDATA[<br>Source: Wikipedia article <a href="https://en.wikipedia.org/wiki/Operation_Cresset#Reblochon">Operation Cresset</a>]]></description>
		</Placemark>
		<Placemark>
			<name><![CDATA[Karab]]></name>
			<Point>
				<coordinates>-116.08249,37.08512,0</coordinates>
			</Point>
			<Snippet></Snippet>
			<description><![CDATA[<br>Source: Wikipedia article <a href="https://en.wikipedia.org/wiki/Operation_Cresset#Karab">Operation Cresset</a>]]></description>
		</Placemark>
		<Placemark>
			<name><![CDATA[Iceberg]]></name>
			<Point>
				<coordinates>-116.05236,37.10182,0</coordinates>
			</Point>
			<Snippet></Snippet>
			<description><![CDATA[<br>Source: Wikipedia article <a href="https://en.wikipedia.org/wiki/Operation_Cresset#Iceberg">Operation Cresset</a>]]></description>
		</Placemark>
		<Placemark>
			<name><![CDATA[Topmast]]></name>
			<Point>
				<coordinates>-116.02049,37.09881,0</coordinates>
			</Point>
			<Snippet></Snippet>
			<description><![CDATA[<br>Source: Wikipedia article <a href="https://en.wikipedia.org/wiki/Operation_Cresset#Topmast">Operation Cresset</a>]]></description>
		</Placemark>
		<Placemark>
			<name><![CDATA[Backbeach]]></name>
			<Point>
				<coordinates>-116.36936,37.23344,0</coordinates>
			</Point>
			<Snippet></Snippet>
			<description><![CDATA[<br>Source: Wikipedia article <a href="https://en.wikipedia.org/wiki/Operation_Cresset#Backbeach">Operation Cresset</a>]]></description>
		</Placemark>
		<Placemark>
			<name><![CDATA[Asco]]></name>
			<Point>
				<coordinates>-116.03563,37.15452,0</coordinates>
			</Point>
			<Snippet></Snippet>
			<description><![CDATA[<br>Source: Wikipedia article <a href="https://en.wikipedia.org/wiki/Operation_Cresset#Asco">Operation Cresset</a>]]></description>
		</Placemark>
		<Placemark>
			<name><![CDATA[Transom]]></name>
			<Point>
				<coordinates>-116.0535,37.08773,0</coordinates>
			</Point>
			<Snippet></Snippet>
			<description><![CDATA[<br>Source: Wikipedia article <a href="https://en.wikipedia.org/wiki/Operation_Cresset#Transom">Operation Cresset</a>]]></description>
		</Placemark>
		<Placemark>
			<name><![CDATA[Jackpots]]></name>
			<Point>
				<coordinates>-116.03267,37.02062,0</coordinates>
			</Point>
			<Snippet></Snippet>
			<description><![CDATA[<br>Source: Wikipedia article <a href="https://en.wikipedia.org/wiki/Operation_Cresset#Jackpots">Operation Cresset</a>]]></description>
		</Placemark>
		<Placemark>
			<name><![CDATA[Satz]]></name>
			<Point>
				<coordinates>-116.07796,37.11185,0</coordinates>
			</Point>
			<Snippet></Snippet>
			<description><![CDATA[<br>Source: Wikipedia article <a href="https://en.wikipedia.org/wiki/Operation_Cresset#Satz">Operation Cresset</a>]]></description>
		</Placemark>
		<Placemark>
			<name><![CDATA[Lowball]]></name>
			<Point>
				<coordinates>-116.04493,37.07861,0</coordinates>
			</Point>
			<Snippet></Snippet>
			<description><![CDATA[<br>Source: Wikipedia article <a href="https://en.wikipedia.org/wiki/Operation_Cresset#Lowball">Operation Cresset</a>]]></description>
		</Placemark>
		<Placemark>
			<name><![CDATA[Panir]]></name>
			<Point>
				<coordinates>-116.35823,37.27587,0</coordinates>
			</Point>
			<Snippet></Snippet>
			<description><![CDATA[<br>Source: Wikipedia article <a href="https://en.wikipedia.org/wiki/Operation_Cresset#Panir">Operation Cresset</a>]]></description>
		</Placemark>
		<Placemark>
			<name><![CDATA[Diablo Hawk]]></name>
			<Point>
				<coordinates>-116.21165,37.20875,0</coordinates>
			</Point>
			<Snippet></Snippet>
			<description><![CDATA[<br>Source: Wikipedia article <a href="https://en.wikipedia.org/wiki/Operation_Cresset#Diablo_Hawk">Operation Cresset</a>]]></description>
		</Placemark>
		<Placemark>
			<name><![CDATA[Cremino - 1]]></name>
			<Point>
				<coordinates>-116.08804,37.17096,0</coordinates>
			</Point>
			<Snippet></Snippet>
			<description><![CDATA[<br>Source: Wikipedia article <a href="https://en.wikipedia.org/wiki/Operation_Cresset#Cremino">Operation Cresset</a>]]></description>
		</Placemark>
		<Placemark>
			<name><![CDATA[Draughts]]></name>
			<Point>
				<coordinates>-116.0207,37.07382,0</coordinates>
			</Point>
			<Snippet></Snippet>
			<description><![CDATA[<br>Source: Wikipedia article <a href="https://en.wikipedia.org/wiki/Operation_Cresset#Draughts">Operation Cresset</a>]]></description>
		</Placemark>
		<Placemark>
			<name><![CDATA[Rummy]]></name>
			<Point>
				<coordinates>-116.05253,37.07974,0</coordinates>
			</Point>
			<Snippet></Snippet>
			<description><![CDATA[<br>Source: Wikipedia article <a href="https://en.wikipedia.org/wiki/Operation_Cresset#Rummy">Operation Cresset</a>]]></description>
		</Placemark>
</Document>
</kml>
