<?xml version="1.0" encoding="UTF-8"?>
<kml xmlns="http://earth.google.com/kml/2.1">
<Document>
	<name><![CDATA[Operation Fusileer]]></name>
	<open>1</open>
		<Placemark>
			<name><![CDATA[Muggins]]></name>
			<Point>
				<coordinates>-116.04643,37.01274,0</coordinates>
			</Point>
			<Snippet></Snippet>
			<description><![CDATA[<br>Source: Wikipedia article <a href="https://en.wikipedia.org/wiki/Operation_Fusileer#Muggins">Operation Fusileer</a>]]></description>
		</Placemark>
		<Placemark>
			<name><![CDATA[Romano]]></name>
			<Point>
				<coordinates>-116.07294,37.1404,0</coordinates>
			</Point>
			<Snippet></Snippet>
			<description><![CDATA[<br>Source: Wikipedia article <a href="https://en.wikipedia.org/wiki/Operation_Fusileer#Romano">Operation Fusileer</a>]]></description>
		</Placemark>
		<Placemark>
			<name><![CDATA[Gorbea]]></name>
			<Point>
				<coordinates>-116.12229,37.11334,0</coordinates>
			</Point>
			<Snippet></Snippet>
			<description><![CDATA[<br>Source: Wikipedia article <a href="https://en.wikipedia.org/wiki/Operation_Fusileer#Gorbea">Operation Fusileer</a>]]></description>
		</Placemark>
		<Placemark>
			<name><![CDATA[Midas Myth/Milagro]]></name>
			<Point>
				<coordinates>-116.181572,37.22135,0</coordinates>
			</Point>
			<Snippet></Snippet>
			<description><![CDATA[<br>Source: Wikipedia article <a href="https://en.wikipedia.org/wiki/Operation_Fusileer#Midas_Myth%2FMilagro">Operation Fusileer</a>]]></description>
		</Placemark>
		<Placemark>
			<name><![CDATA[Tortugas]]></name>
			<Point>
				<coordinates>-116.04716,37.06572,0</coordinates>
			</Point>
			<Snippet></Snippet>
			<description><![CDATA[<br>Source: Wikipedia article <a href="https://en.wikipedia.org/wiki/Operation_Fusileer#Tortugas">Operation Fusileer</a>]]></description>
		</Placemark>
		<Placemark>
			<name><![CDATA[Agrini]]></name>
			<Point>
				<coordinates>-116.08512,37.14648,0</coordinates>
			</Point>
			<Snippet></Snippet>
			<description><![CDATA[<br>Source: Wikipedia article <a href="https://en.wikipedia.org/wiki/Operation_Fusileer#Agrini">Operation Fusileer</a>]]></description>
		</Placemark>
		<Placemark>
			<name><![CDATA[Orkney]]></name>
			<Point>
				<coordinates>-116.05484,37.19843,0</coordinates>
			</Point>
			<Snippet></Snippet>
			<description><![CDATA[<br>Source: Wikipedia article <a href="https://en.wikipedia.org/wiki/Operation_Fusileer#Orkney">Operation Fusileer</a>]]></description>
		</Placemark>
		<Placemark>
			<name><![CDATA[Bellow]]></name>
			<Point>
				<coordinates>-116.09412,37.09244,0</coordinates>
			</Point>
			<Snippet></Snippet>
			<description><![CDATA[<br>Source: Wikipedia article <a href="https://en.wikipedia.org/wiki/Operation_Fusileer#Bellow">Operation Fusileer</a>]]></description>
		</Placemark>
		<Placemark>
			<name><![CDATA[Caprock]]></name>
			<Point>
				<coordinates>-116.04967,37.10333,0</coordinates>
			</Point>
			<Snippet></Snippet>
			<description><![CDATA[<br>Source: Wikipedia article <a href="https://en.wikipedia.org/wiki/Operation_Fusileer#Caprock">Operation Fusileer</a>]]></description>
		</Placemark>
		<Placemark>
			<name><![CDATA[Duoro]]></name>
			<Point>
				<coordinates>-116.04399,37.00042,0</coordinates>
			</Point>
			<Snippet></Snippet>
			<description><![CDATA[<br>Source: Wikipedia article <a href="https://en.wikipedia.org/wiki/Operation_Fusileer#Duoro">Operation Fusileer</a>]]></description>
		</Placemark>
		<Placemark>
			<name><![CDATA[Normanna]]></name>
			<Point>
				<coordinates>-116.03525,37.19194,0</coordinates>
			</Point>
			<Snippet></Snippet>
			<description><![CDATA[<br>Source: Wikipedia article <a href="https://en.wikipedia.org/wiki/Operation_Fusileer#Normanna">Operation Fusileer</a>]]></description>
		</Placemark>
		<Placemark>
			<name><![CDATA[Kappeli]]></name>
			<Point>
				<coordinates>-116.41153,37.26771,0</coordinates>
			</Point>
			<Snippet></Snippet>
			<description><![CDATA[<br>Source: Wikipedia article <a href="https://en.wikipedia.org/wiki/Operation_Fusileer#Kappeli">Operation Fusileer</a>]]></description>
		</Placemark>
		<Placemark>
			<name><![CDATA[Correo]]></name>
			<Point>
				<coordinates>-116.00853,37.01681,0</coordinates>
			</Point>
			<Snippet></Snippet>
			<description><![CDATA[<br>Source: Wikipedia article <a href="https://en.wikipedia.org/wiki/Operation_Fusileer#Correo">Operation Fusileer</a>]]></description>
		</Placemark>
		<Placemark>
			<name><![CDATA[Dolcetto]]></name>
			<Point>
				<coordinates>-116.00023,37.08975,0</coordinates>
			</Point>
			<Snippet></Snippet>
			<description><![CDATA[<br>Source: Wikipedia article <a href="https://en.wikipedia.org/wiki/Operation_Fusileer#Dolcetto">Operation Fusileer</a>]]></description>
		</Placemark>
		<Placemark>
			<name><![CDATA[Wexford]]></name>
			<Point>
				<coordinates>-116.12615,37.14386,0</coordinates>
			</Point>
			<Snippet></Snippet>
			<description><![CDATA[<br>Source: Wikipedia article <a href="https://en.wikipedia.org/wiki/Operation_Fusileer#Wexford">Operation Fusileer</a>]]></description>
		</Placemark>
		<Placemark>
			<name><![CDATA[Breton]]></name>
			<Point>
				<coordinates>-116.0724,37.08639,0</coordinates>
			</Point>
			<Snippet></Snippet>
			<description><![CDATA[<br>Source: Wikipedia article <a href="https://en.wikipedia.org/wiki/Operation_Fusileer#Breton">Operation Fusileer</a>]]></description>
		</Placemark>
</Document>
</kml>
