<?xml version="1.0" encoding="UTF-8"?>
<kml xmlns="http://earth.google.com/kml/2.1">
<Document>
	<name><![CDATA[Operation Latchkey]]></name>
	<open>1</open>
		<Placemark>
			<name><![CDATA[Saxon]]></name>
			<Point>
				<coordinates>-116.13404,37.14044,0</coordinates>
			</Point>
			<Snippet></Snippet>
			<description><![CDATA[<br>Source: Wikipedia article <a href="https://en.wikipedia.org/wiki/Operation_Latchkey#Saxon">Operation Latchkey</a>]]></description>
		</Placemark>
		<Placemark>
			<name><![CDATA[Rovena]]></name>
			<Point>
				<coordinates>-116.04862,37.16864,0</coordinates>
			</Point>
			<Snippet></Snippet>
			<description><![CDATA[<br>Source: Wikipedia article <a href="https://en.wikipedia.org/wiki/Operation_Latchkey#Rovena">Operation Latchkey</a>]]></description>
		</Placemark>
		<Placemark>
			<name><![CDATA[Tangerine]]></name>
			<Point>
				<coordinates>-116.03007,37.04629,0</coordinates>
			</Point>
			<Snippet></Snippet>
			<description><![CDATA[<br>Source: Wikipedia article <a href="https://en.wikipedia.org/wiki/Operation_Latchkey#Tangerine">Operation Latchkey</a>]]></description>
		</Placemark>
		<Placemark>
			<name><![CDATA[Derringer]]></name>
			<Point>
				<coordinates>-115.95136,36.87595,0</coordinates>
			</Point>
			<Snippet></Snippet>
			<description><![CDATA[<br>Source: Wikipedia article <a href="https://en.wikipedia.org/wiki/Operation_Latchkey#Derringer">Operation Latchkey</a>]]></description>
		</Placemark>
		<Placemark>
			<name><![CDATA[Daiquiri]]></name>
			<Point>
				<coordinates>-116.03657,37.1033,0</coordinates>
			</Point>
			<Snippet></Snippet>
			<description><![CDATA[<br>Source: Wikipedia article <a href="https://en.wikipedia.org/wiki/Operation_Latchkey#Daiquiri">Operation Latchkey</a>]]></description>
		</Placemark>
		<Placemark>
			<name><![CDATA[Newark]]></name>
			<Point>
				<coordinates>-116.04693,37.16862,0</coordinates>
			</Point>
			<Snippet></Snippet>
			<description><![CDATA[<br>Source: Wikipedia article <a href="https://en.wikipedia.org/wiki/Operation_Latchkey#Newark">Operation Latchkey</a>]]></description>
		</Placemark>
		<Placemark>
			<name><![CDATA[Khaki]]></name>
			<Point>
				<coordinates>-116.01772,37.04704,0</coordinates>
			</Point>
			<Snippet></Snippet>
			<description><![CDATA[<br>Source: Wikipedia article <a href="https://en.wikipedia.org/wiki/Operation_Latchkey#Khaki">Operation Latchkey</a>]]></description>
		</Placemark>
		<Placemark>
			<name><![CDATA[Simms]]></name>
			<Point>
				<coordinates>-116.04809,37.1699,0</coordinates>
			</Point>
			<Snippet></Snippet>
			<description><![CDATA[<br>Source: Wikipedia article <a href="https://en.wikipedia.org/wiki/Operation_Latchkey#Simms">Operation Latchkey</a>]]></description>
		</Placemark>
		<Placemark>
			<name><![CDATA[Ajax]]></name>
			<Point>
				<coordinates>-116.05095,37.13449,0</coordinates>
			</Point>
			<Snippet></Snippet>
			<description><![CDATA[<br>Source: Wikipedia article <a href="https://en.wikipedia.org/wiki/Operation_Latchkey#Ajax">Operation Latchkey</a>]]></description>
		</Placemark>
		<Placemark>
			<name><![CDATA[Cerise]]></name>
			<Point>
				<coordinates>-116.0113,37.04273,0</coordinates>
			</Point>
			<Snippet></Snippet>
			<description><![CDATA[<br>Source: Wikipedia article <a href="https://en.wikipedia.org/wiki/Operation_Latchkey#Cerise">Operation Latchkey</a>]]></description>
		</Placemark>
		<Placemark>
			<name><![CDATA[Vigil]]></name>
			<Point>
				<coordinates>-116.04918,37.16934,0</coordinates>
			</Point>
			<Snippet></Snippet>
			<description><![CDATA[<br>Source: Wikipedia article <a href="https://en.wikipedia.org/wiki/Operation_Latchkey#Vigil">Operation Latchkey</a>]]></description>
		</Placemark>
		<Placemark>
			<name><![CDATA[Sterling]]></name>
			<Point>
				<coordinates>-89.57001,31.14229,0</coordinates>
			</Point>
			<Snippet></Snippet>
			<description><![CDATA[<br>Source: Wikipedia article <a href="https://en.wikipedia.org/wiki/Operation_Latchkey#Sterling">Operation Latchkey</a>]]></description>
		</Placemark>
		<Placemark>
			<name><![CDATA[Sidecar]]></name>
			<Point>
				<coordinates>-116.00751,37.03478,0</coordinates>
			</Point>
			<Snippet></Snippet>
			<description><![CDATA[<br>Source: Wikipedia article <a href="https://en.wikipedia.org/wiki/Operation_Latchkey#Sidecar">Operation Latchkey</a>]]></description>
		</Placemark>
		<Placemark>
			<name><![CDATA[New Point]]></name>
			<Point>
				<coordinates>-115.93875,36.8772,0</coordinates>
			</Point>
			<Snippet></Snippet>
			<description><![CDATA[<br>Source: Wikipedia article <a href="https://en.wikipedia.org/wiki/Operation_Latchkey#New_Point">Operation Latchkey</a>]]></description>
		</Placemark>
		<Placemark>
			<name><![CDATA[Greeley]]></name>
			<Point>
				<coordinates>-116.40966,37.30231,0</coordinates>
			</Point>
			<Snippet></Snippet>
			<description><![CDATA[<br>Source: Wikipedia article <a href="https://en.wikipedia.org/wiki/Operation_Latchkey#Greeley">Operation Latchkey</a>]]></description>
		</Placemark>
		<Placemark>
			<name><![CDATA[Rivet 1]]></name>
			<Point>
				<coordinates>-116.04742,37.16507,0</coordinates>
			</Point>
			<Snippet></Snippet>
			<description><![CDATA[<br>Source: Wikipedia article <a href="https://en.wikipedia.org/wiki/Operation_Latchkey#Rivet_1">Operation Latchkey</a>]]></description>
		</Placemark>
		<Placemark>
			<name><![CDATA[Nash]]></name>
			<Point>
				<coordinates>-116.13619,37.1437,0</coordinates>
			</Point>
			<Snippet></Snippet>
			<description><![CDATA[<br>Source: Wikipedia article <a href="https://en.wikipedia.org/wiki/Operation_Latchkey#Nash">Operation Latchkey</a>]]></description>
		</Placemark>
		<Placemark>
			<name><![CDATA[Bourbon]]></name>
			<Point>
				<coordinates>-116.0047,37.09981,0</coordinates>
			</Point>
			<Snippet></Snippet>
			<description><![CDATA[<br>Source: Wikipedia article <a href="https://en.wikipedia.org/wiki/Operation_Latchkey#Bourbon">Operation Latchkey</a>]]></description>
		</Placemark>
		<Placemark>
			<name><![CDATA[Rivet 2]]></name>
			<Point>
				<coordinates>-116.04893,37.16475,0</coordinates>
			</Point>
			<Snippet></Snippet>
			<description><![CDATA[<br>Source: Wikipedia article <a href="https://en.wikipedia.org/wiki/Operation_Latchkey#Rivet_2">Operation Latchkey</a>]]></description>
		</Placemark>
		<Placemark>
			<name><![CDATA[Ward]]></name>
			<Point>
				<coordinates>-116.04801,37.16748,0</coordinates>
			</Point>
			<Snippet></Snippet>
			<description><![CDATA[<br>Source: Wikipedia article <a href="https://en.wikipedia.org/wiki/Operation_Latchkey#Ward">Operation Latchkey</a>]]></description>
		</Placemark>
		<Placemark>
			<name><![CDATA[Persimmon]]></name>
			<Point>
				<coordinates>-116.01662,37.01756,0</coordinates>
			</Point>
			<Snippet></Snippet>
			<description><![CDATA[<br>Source: Wikipedia article <a href="https://en.wikipedia.org/wiki/Operation_Latchkey#Persimmon">Operation Latchkey</a>]]></description>
		</Placemark>
		<Placemark>
			<name><![CDATA[Agile]]></name>
			<Point>
				<coordinates>-116.06726,37.12681,0</coordinates>
			</Point>
			<Snippet></Snippet>
			<description><![CDATA[<br>Source: Wikipedia article <a href="https://en.wikipedia.org/wiki/Operation_Latchkey#Agile">Operation Latchkey</a>]]></description>
		</Placemark>
		<Placemark>
			<name><![CDATA[Rivet 3]]></name>
			<Point>
				<coordinates>-116.04957,37.16581,0</coordinates>
			</Point>
			<Snippet></Snippet>
			<description><![CDATA[<br>Source: Wikipedia article <a href="https://en.wikipedia.org/wiki/Operation_Latchkey#Rivet_3">Operation Latchkey</a>]]></description>
		</Placemark>
		<Placemark>
			<name><![CDATA[Mushroom]]></name>
			<Point>
				<coordinates>-116.01093,37.03946,0</coordinates>
			</Point>
			<Snippet></Snippet>
			<description><![CDATA[<br>Source: Wikipedia article <a href="https://en.wikipedia.org/wiki/Operation_Latchkey#Mushroom">Operation Latchkey</a>]]></description>
		</Placemark>
		<Placemark>
			<name><![CDATA[Fizz]]></name>
			<Point>
				<coordinates>-116.03073,37.04612,0</coordinates>
			</Point>
			<Snippet></Snippet>
			<description><![CDATA[<br>Source: Wikipedia article <a href="https://en.wikipedia.org/wiki/Operation_Latchkey#Fizz">Operation Latchkey</a>]]></description>
		</Placemark>
		<Placemark>
			<name><![CDATA[Oakland]]></name>
			<Point>
				<coordinates>-116.08313,37.16195,0</coordinates>
			</Point>
			<Snippet></Snippet>
			<description><![CDATA[<br>Source: Wikipedia article <a href="https://en.wikipedia.org/wiki/Operation_Latchkey#Oakland">Operation Latchkey</a>]]></description>
		</Placemark>
		<Placemark>
			<name><![CDATA[Heilman]]></name>
			<Point>
				<coordinates>-116.13355,37.13728,0</coordinates>
			</Point>
			<Snippet></Snippet>
			<description><![CDATA[<br>Source: Wikipedia article <a href="https://en.wikipedia.org/wiki/Operation_Latchkey#Heilman">Operation Latchkey</a>]]></description>
		</Placemark>
		<Placemark>
			<name><![CDATA[Fawn]]></name>
			<Point>
				<coordinates>-116.02296,37.05439,0</coordinates>
			</Point>
			<Snippet></Snippet>
			<description><![CDATA[<br>Source: Wikipedia article <a href="https://en.wikipedia.org/wiki/Operation_Latchkey#Fawn">Operation Latchkey</a>]]></description>
		</Placemark>
		<Placemark>
			<name><![CDATA[Chocolate]]></name>
			<Point>
				<coordinates>-116.03818,37.01928,0</coordinates>
			</Point>
			<Snippet></Snippet>
			<description><![CDATA[<br>Source: Wikipedia article <a href="https://en.wikipedia.org/wiki/Operation_Latchkey#Chocolate">Operation Latchkey</a>]]></description>
		</Placemark>
		<Placemark>
			<name><![CDATA[Effendi]]></name>
			<Point>
				<coordinates>-116.06407,37.13873,0</coordinates>
			</Point>
			<Snippet></Snippet>
			<description><![CDATA[<br>Source: Wikipedia article <a href="https://en.wikipedia.org/wiki/Operation_Latchkey#Effendi">Operation Latchkey</a>]]></description>
		</Placemark>
		<Placemark>
			<name><![CDATA[Mickey]]></name>
			<Point>
				<coordinates>-115.99617,37.07781,0</coordinates>
			</Point>
			<Snippet></Snippet>
			<description><![CDATA[<br>Source: Wikipedia article <a href="https://en.wikipedia.org/wiki/Operation_Latchkey#Mickey">Operation Latchkey</a>]]></description>
		</Placemark>
		<Placemark>
			<name><![CDATA[Commodore]]></name>
			<Point>
				<coordinates>-116.0652,37.13011,0</coordinates>
			</Point>
			<Snippet></Snippet>
			<description><![CDATA[<br>Source: Wikipedia article <a href="https://en.wikipedia.org/wiki/Operation_Latchkey#Commodore">Operation Latchkey</a>]]></description>
		</Placemark>
		<Placemark>
			<name><![CDATA[Scotch]]></name>
			<Point>
				<coordinates>-116.37086,37.27503,0</coordinates>
			</Point>
			<Snippet></Snippet>
			<description><![CDATA[<br>Source: Wikipedia article <a href="https://en.wikipedia.org/wiki/Operation_Latchkey#Scotch">Operation Latchkey</a>]]></description>
		</Placemark>
		<Placemark>
			<name><![CDATA[Absinthe]]></name>
			<Point>
				<coordinates>-116.01979,37.045,0</coordinates>
			</Point>
			<Snippet></Snippet>
			<description><![CDATA[<br>Source: Wikipedia article <a href="https://en.wikipedia.org/wiki/Operation_Latchkey#Absinthe">Operation Latchkey</a>]]></description>
		</Placemark>
		<Placemark>
			<name><![CDATA[Knickerbocker]]></name>
			<Point>
				<coordinates>-116.48106,37.24789,0</coordinates>
			</Point>
			<Snippet></Snippet>
			<description><![CDATA[<br>Source: Wikipedia article <a href="https://en.wikipedia.org/wiki/Operation_Latchkey#Knickerbocker">Operation Latchkey</a>]]></description>
		</Placemark>
		<Placemark>
			<name><![CDATA[Switch]]></name>
			<Point>
				<coordinates>-116.02954,37.12551,0</coordinates>
			</Point>
			<Snippet></Snippet>
			<description><![CDATA[<br>Source: Wikipedia article <a href="https://en.wikipedia.org/wiki/Operation_Latchkey#Switch">Operation Latchkey</a>]]></description>
		</Placemark>
		<Placemark>
			<name><![CDATA[Midi Mist]]></name>
			<Point>
				<coordinates>-116.20871,37.20206,0</coordinates>
			</Point>
			<Snippet></Snippet>
			<description><![CDATA[<br>Source: Wikipedia article <a href="https://en.wikipedia.org/wiki/Operation_Latchkey#Midi_Mist">Operation Latchkey</a>]]></description>
		</Placemark>
		<Placemark>
			<name><![CDATA[Umber]]></name>
			<Point>
				<coordinates>-116.0233,37.02849,0</coordinates>
			</Point>
			<Snippet></Snippet>
			<description><![CDATA[<br>Source: Wikipedia article <a href="https://en.wikipedia.org/wiki/Operation_Latchkey#Umber">Operation Latchkey</a>]]></description>
		</Placemark>
</Document>
</kml>
