<?xml version="1.0" encoding="UTF-8"?>
<kml xmlns="http://earth.google.com/kml/2.1">
<Document>
	<name><![CDATA[Operation Mandrel]]></name>
	<open>1</open>
		<Placemark>
			<name><![CDATA[Ildrim]]></name>
			<Point>
				<coordinates>-116.05599,37.11939,0</coordinates>
			</Point>
			<Snippet></Snippet>
			<description><![CDATA[<br>Source: Wikipedia article <a href="https://en.wikipedia.org/wiki/Operation_Mandrel#Ildrim">Operation Mandrel</a>]]></description>
		</Placemark>
		<Placemark>
			<name><![CDATA[Hutch]]></name>
			<Point>
				<coordinates>-116.08822,37.13953,0</coordinates>
			</Point>
			<Snippet></Snippet>
			<description><![CDATA[<br>Source: Wikipedia article <a href="https://en.wikipedia.org/wiki/Operation_Mandrel#Hutch">Operation Mandrel</a>]]></description>
		</Placemark>
		<Placemark>
			<name><![CDATA[Spider - 1]]></name>
			<Point>
				<coordinates>-116.06448,37.1602,0</coordinates>
			</Point>
			<Snippet></Snippet>
			<description><![CDATA[<br>Source: Wikipedia article <a href="https://en.wikipedia.org/wiki/Operation_Mandrel#Spider">Operation Mandrel</a>]]></description>
		</Placemark>
		<Placemark>
			<name><![CDATA[Spider - 2]]></name>
			<Point>
				<coordinates>-116.06467,37.1582,0</coordinates>
			</Point>
			<Snippet></Snippet>
			<description><![CDATA[<br>Source: Wikipedia article <a href="https://en.wikipedia.org/wiki/Operation_Mandrel#Spider">Operation Mandrel</a>]]></description>
		</Placemark>
		<Placemark>
			<name><![CDATA[Horehound]]></name>
			<Point>
				<coordinates>-115.99637,36.99267,0</coordinates>
			</Point>
			<Snippet></Snippet>
			<description><![CDATA[<br>Source: Wikipedia article <a href="https://en.wikipedia.org/wiki/Operation_Mandrel#Horehound">Operation Mandrel</a>]]></description>
		</Placemark>
		<Placemark>
			<name><![CDATA[Pliers]]></name>
			<Point>
				<coordinates>-116.03884,37.02146,0</coordinates>
			</Point>
			<Snippet></Snippet>
			<description><![CDATA[<br>Source: Wikipedia article <a href="https://en.wikipedia.org/wiki/Operation_Mandrel#Pliers">Operation Mandrel</a>]]></description>
		</Placemark>
		<Placemark>
			<name><![CDATA[Rulison]]></name>
			<Point>
				<coordinates>-107.94857,39.40535,0</coordinates>
			</Point>
			<Snippet></Snippet>
			<description><![CDATA[<br>Source: Wikipedia article <a href="https://en.wikipedia.org/wiki/Operation_Mandrel#Rulison">Operation Mandrel</a>]]></description>
		</Placemark>
		<Placemark>
			<name><![CDATA[Minute Steak]]></name>
			<Point>
				<coordinates>-115.92936,36.87718,0</coordinates>
			</Point>
			<Snippet></Snippet>
			<description><![CDATA[<br>Source: Wikipedia article <a href="https://en.wikipedia.org/wiki/Operation_Mandrel#Minute_Steak">Operation Mandrel</a>]]></description>
		</Placemark>
		<Placemark>
			<name><![CDATA[Jorum]]></name>
			<Point>
				<coordinates>-116.46156,37.31408,0</coordinates>
			</Point>
			<Snippet></Snippet>
			<description><![CDATA[<br>Source: Wikipedia article <a href="https://en.wikipedia.org/wiki/Operation_Mandrel#Jorum">Operation Mandrel</a>]]></description>
		</Placemark>
		<Placemark>
			<name><![CDATA[Kyack - 1]]></name>
			<Point>
				<coordinates>-116.06863,37.15874,0</coordinates>
			</Point>
			<Snippet></Snippet>
			<description><![CDATA[<br>Source: Wikipedia article <a href="https://en.wikipedia.org/wiki/Operation_Mandrel#Kyack">Operation Mandrel</a>]]></description>
		</Placemark>
		<Placemark>
			<name><![CDATA[Kyack - 2]]></name>
			<Point>
				<coordinates>-116.06677,37.15729,0</coordinates>
			</Point>
			<Snippet></Snippet>
			<description><![CDATA[<br>Source: Wikipedia article <a href="https://en.wikipedia.org/wiki/Operation_Mandrel#Kyack">Operation Mandrel</a>]]></description>
		</Placemark>
		<Placemark>
			<name><![CDATA[Seaweed - 1]]></name>
			<Point>
				<coordinates>-115.99935,37.01141,0</coordinates>
			</Point>
			<Snippet></Snippet>
			<description><![CDATA[<br>Source: Wikipedia article <a href="https://en.wikipedia.org/wiki/Operation_Mandrel#Seaweed">Operation Mandrel</a>]]></description>
		</Placemark>
		<Placemark>
			<name><![CDATA[Seaweed - 2]]></name>
			<Point>
				<coordinates>-116.0003,37.01048,0</coordinates>
			</Point>
			<Snippet></Snippet>
			<description><![CDATA[<br>Source: Wikipedia article <a href="https://en.wikipedia.org/wiki/Operation_Mandrel#Seaweed">Operation Mandrel</a>]]></description>
		</Placemark>
		<Placemark>
			<name><![CDATA[Seaweed - 3]]></name>
			<Point>
				<coordinates>-115.99935,37.01371,0</coordinates>
			</Point>
			<Snippet></Snippet>
			<description><![CDATA[<br>Source: Wikipedia article <a href="https://en.wikipedia.org/wiki/Operation_Mandrel#Seaweed">Operation Mandrel</a>]]></description>
		</Placemark>
		<Placemark>
			<name><![CDATA[Milrow]]></name>
			<Point>
				<coordinates>179.17939,51.41572,0</coordinates>
			</Point>
			<Snippet></Snippet>
			<description><![CDATA[<br>Source: Wikipedia article <a href="https://en.wikipedia.org/wiki/Operation_Mandrel#Milrow">Operation Mandrel</a>]]></description>
		</Placemark>
		<Placemark>
			<name><![CDATA[Pipkin]]></name>
			<Point>
				<coordinates>-116.44164,37.25667,0</coordinates>
			</Point>
			<Snippet></Snippet>
			<description><![CDATA[<br>Source: Wikipedia article <a href="https://en.wikipedia.org/wiki/Operation_Mandrel#Pipkin">Operation Mandrel</a>]]></description>
		</Placemark>
		<Placemark>
			<name><![CDATA[Seaweed B]]></name>
			<Point>
				<coordinates>-115.99901,37.01255,0</coordinates>
			</Point>
			<Snippet></Snippet>
			<description><![CDATA[<br>Source: Wikipedia article <a href="https://en.wikipedia.org/wiki/Operation_Mandrel#Seaweed_B">Operation Mandrel</a>]]></description>
		</Placemark>
		<Placemark>
			<name><![CDATA[Cruet]]></name>
			<Point>
				<coordinates>-116.12829,37.12138,0</coordinates>
			</Point>
			<Snippet></Snippet>
			<description><![CDATA[<br>Source: Wikipedia article <a href="https://en.wikipedia.org/wiki/Operation_Mandrel#Cruet">Operation Mandrel</a>]]></description>
		</Placemark>
		<Placemark>
			<name><![CDATA[Pod - 1]]></name>
			<Point>
				<coordinates>-116.13136,37.14015,0</coordinates>
			</Point>
			<Snippet></Snippet>
			<description><![CDATA[<br>Source: Wikipedia article <a href="https://en.wikipedia.org/wiki/Operation_Mandrel#Pod">Operation Mandrel</a>]]></description>
		</Placemark>
		<Placemark>
			<name><![CDATA[Pod - 2]]></name>
			<Point>
				<coordinates>-116.1427,37.1404,0</coordinates>
			</Point>
			<Snippet></Snippet>
			<description><![CDATA[<br>Source: Wikipedia article <a href="https://en.wikipedia.org/wiki/Operation_Mandrel#Pod">Operation Mandrel</a>]]></description>
		</Placemark>
		<Placemark>
			<name><![CDATA[Pod - 3]]></name>
			<Point>
				<coordinates>-116.14083,37.13628,0</coordinates>
			</Point>
			<Snippet></Snippet>
			<description><![CDATA[<br>Source: Wikipedia article <a href="https://en.wikipedia.org/wiki/Operation_Mandrel#Pod">Operation Mandrel</a>]]></description>
		</Placemark>
		<Placemark>
			<name><![CDATA[Pod - 4]]></name>
			<Point>
				<coordinates>-116.13694,37.13532,0</coordinates>
			</Point>
			<Snippet></Snippet>
			<description><![CDATA[<br>Source: Wikipedia article <a href="https://en.wikipedia.org/wiki/Operation_Mandrel#Pod">Operation Mandrel</a>]]></description>
		</Placemark>
		<Placemark>
			<name><![CDATA[Calabash]]></name>
			<Point>
				<coordinates>-116.06501,37.14326,0</coordinates>
			</Point>
			<Snippet></Snippet>
			<description><![CDATA[<br>Source: Wikipedia article <a href="https://en.wikipedia.org/wiki/Operation_Mandrel#Calabash">Operation Mandrel</a>]]></description>
		</Placemark>
		<Placemark>
			<name><![CDATA[Scuttle]]></name>
			<Point>
				<coordinates>-116.07576,37.16462,0</coordinates>
			</Point>
			<Snippet></Snippet>
			<description><![CDATA[<br>Source: Wikipedia article <a href="https://en.wikipedia.org/wiki/Operation_Mandrel#Scuttle">Operation Mandrel</a>]]></description>
		</Placemark>
		<Placemark>
			<name><![CDATA[Piccalilli]]></name>
			<Point>
				<coordinates>-116.00276,37.03118,0</coordinates>
			</Point>
			<Snippet></Snippet>
			<description><![CDATA[<br>Source: Wikipedia article <a href="https://en.wikipedia.org/wiki/Operation_Mandrel#Piccalilli">Operation Mandrel</a>]]></description>
		</Placemark>
		<Placemark>
			<name><![CDATA[Planer]]></name>
			<Point>
				<coordinates>-116.02347,37.01481,0</coordinates>
			</Point>
			<Snippet></Snippet>
			<description><![CDATA[<br>Source: Wikipedia article <a href="https://en.wikipedia.org/wiki/Operation_Mandrel#Planer">Operation Mandrel</a>]]></description>
		</Placemark>
		<Placemark>
			<name><![CDATA[Diesel Train]]></name>
			<Point>
				<coordinates>-116.21174,37.17992,0</coordinates>
			</Point>
			<Snippet></Snippet>
			<description><![CDATA[<br>Source: Wikipedia article <a href="https://en.wikipedia.org/wiki/Operation_Mandrel#Diesel_Train">Operation Mandrel</a>]]></description>
		</Placemark>
		<Placemark>
			<name><![CDATA[Culantro - 1]]></name>
			<Point>
				<coordinates>-116.00362,37.01469,0</coordinates>
			</Point>
			<Snippet></Snippet>
			<description><![CDATA[<br>Source: Wikipedia article <a href="https://en.wikipedia.org/wiki/Operation_Mandrel#Culantro">Operation Mandrel</a>]]></description>
		</Placemark>
		<Placemark>
			<name><![CDATA[Culantro - 2]]></name>
			<Point>
				<coordinates>-116.0019,37.01489,0</coordinates>
			</Point>
			<Snippet></Snippet>
			<description><![CDATA[<br>Source: Wikipedia article <a href="https://en.wikipedia.org/wiki/Operation_Mandrel#Culantro">Operation Mandrel</a>]]></description>
		</Placemark>
		<Placemark>
			<name><![CDATA[Tun - 1]]></name>
			<Point>
				<coordinates>-116.08023,37.16771,0</coordinates>
			</Point>
			<Snippet></Snippet>
			<description><![CDATA[<br>Source: Wikipedia article <a href="https://en.wikipedia.org/wiki/Operation_Mandrel#Tun">Operation Mandrel</a>]]></description>
		</Placemark>
		<Placemark>
			<name><![CDATA[Tun - 2]]></name>
			<Point>
				<coordinates>-116.08019,37.16945,0</coordinates>
			</Point>
			<Snippet></Snippet>
			<description><![CDATA[<br>Source: Wikipedia article <a href="https://en.wikipedia.org/wiki/Operation_Mandrel#Tun">Operation Mandrel</a>]]></description>
		</Placemark>
		<Placemark>
			<name><![CDATA[Tun - 3]]></name>
			<Point>
				<coordinates>-116.07797,37.16769,0</coordinates>
			</Point>
			<Snippet></Snippet>
			<description><![CDATA[<br>Source: Wikipedia article <a href="https://en.wikipedia.org/wiki/Operation_Mandrel#Tun">Operation Mandrel</a>]]></description>
		</Placemark>
		<Placemark>
			<name><![CDATA[Tun - 4]]></name>
			<Point>
				<coordinates>-116.07796,37.16947,0</coordinates>
			</Point>
			<Snippet></Snippet>
			<description><![CDATA[<br>Source: Wikipedia article <a href="https://en.wikipedia.org/wiki/Operation_Mandrel#Tun">Operation Mandrel</a>]]></description>
		</Placemark>
		<Placemark>
			<name><![CDATA[Grape A]]></name>
			<Point>
				<coordinates>-116.00266,37.08333,0</coordinates>
			</Point>
			<Snippet></Snippet>
			<description><![CDATA[<br>Source: Wikipedia article <a href="https://en.wikipedia.org/wiki/Operation_Mandrel#Grape_A">Operation Mandrel</a>]]></description>
		</Placemark>
		<Placemark>
			<name><![CDATA[Lovage]]></name>
			<Point>
				<coordinates>-116.02356,37.00661,0</coordinates>
			</Point>
			<Snippet></Snippet>
			<description><![CDATA[<br>Source: Wikipedia article <a href="https://en.wikipedia.org/wiki/Operation_Mandrel#Lovage">Operation Mandrel</a>]]></description>
		</Placemark>
		<Placemark>
			<name><![CDATA[Terrine-White - 1]]></name>
			<Point>
				<coordinates>-116.03551,37.12044,0</coordinates>
			</Point>
			<Snippet></Snippet>
			<description><![CDATA[<br>Source: Wikipedia article <a href="https://en.wikipedia.org/wiki/Operation_Mandrel#Terrine-White">Operation Mandrel</a>]]></description>
		</Placemark>
		<Placemark>
			<name><![CDATA[Terrine-Yellow - 2]]></name>
			<Point>
				<coordinates>-116.0297,37.12044,0</coordinates>
			</Point>
			<Snippet></Snippet>
			<description><![CDATA[<br>Source: Wikipedia article <a href="https://en.wikipedia.org/wiki/Operation_Mandrel#Terrine-Yellow">Operation Mandrel</a>]]></description>
		</Placemark>
		<Placemark>
			<name><![CDATA[Fob-Blue - 3]]></name>
			<Point>
				<coordinates>-116.03351,37.14063,0</coordinates>
			</Point>
			<Snippet></Snippet>
			<description><![CDATA[<br>Source: Wikipedia article <a href="https://en.wikipedia.org/wiki/Operation_Mandrel#Fob-Blue">Operation Mandrel</a>]]></description>
		</Placemark>
		<Placemark>
			<name><![CDATA[Fob-Green - 1]]></name>
			<Point>
				<coordinates>-116.03764,37.14066,0</coordinates>
			</Point>
			<Snippet></Snippet>
			<description><![CDATA[<br>Source: Wikipedia article <a href="https://en.wikipedia.org/wiki/Operation_Mandrel#Fob-Green">Operation Mandrel</a>]]></description>
		</Placemark>
		<Placemark>
			<name><![CDATA[Fob-Red - 2]]></name>
			<Point>
				<coordinates>-116.03765,37.13737,0</coordinates>
			</Point>
			<Snippet></Snippet>
			<description><![CDATA[<br>Source: Wikipedia article <a href="https://en.wikipedia.org/wiki/Operation_Mandrel#Fob-Red">Operation Mandrel</a>]]></description>
		</Placemark>
		<Placemark>
			<name><![CDATA[Ajo]]></name>
			<Point>
				<coordinates>-116.03562,37.03079,0</coordinates>
			</Point>
			<Snippet></Snippet>
			<description><![CDATA[<br>Source: Wikipedia article <a href="https://en.wikipedia.org/wiki/Operation_Mandrel#Ajo">Operation Mandrel</a>]]></description>
		</Placemark>
		<Placemark>
			<name><![CDATA[Belen]]></name>
			<Point>
				<coordinates>-116.03971,37.05497,0</coordinates>
			</Point>
			<Snippet></Snippet>
			<description><![CDATA[<br>Source: Wikipedia article <a href="https://en.wikipedia.org/wiki/Operation_Mandrel#Belen">Operation Mandrel</a>]]></description>
		</Placemark>
		<Placemark>
			<name><![CDATA[Grape B]]></name>
			<Point>
				<coordinates>-116.02737,37.09804,0</coordinates>
			</Point>
			<Snippet></Snippet>
			<description><![CDATA[<br>Source: Wikipedia article <a href="https://en.wikipedia.org/wiki/Operation_Mandrel#Grape_B">Operation Mandrel</a>]]></description>
		</Placemark>
		<Placemark>
			<name><![CDATA[Labis]]></name>
			<Point>
				<coordinates>-116.0397,37.16392,0</coordinates>
			</Point>
			<Snippet></Snippet>
			<description><![CDATA[<br>Source: Wikipedia article <a href="https://en.wikipedia.org/wiki/Operation_Mandrel#Labis">Operation Mandrel</a>]]></description>
		</Placemark>
		<Placemark>
			<name><![CDATA[Diana Mist]]></name>
			<Point>
				<coordinates>-116.2061,37.20123,0</coordinates>
			</Point>
			<Snippet></Snippet>
			<description><![CDATA[<br>Source: Wikipedia article <a href="https://en.wikipedia.org/wiki/Operation_Mandrel#Diana_Mist">Operation Mandrel</a>]]></description>
		</Placemark>
		<Placemark>
			<name><![CDATA[Cumarin]]></name>
			<Point>
				<coordinates>-116.00013,37.03655,0</coordinates>
			</Point>
			<Snippet></Snippet>
			<description><![CDATA[<br>Source: Wikipedia article <a href="https://en.wikipedia.org/wiki/Operation_Mandrel#Cumarin">Operation Mandrel</a>]]></description>
		</Placemark>
		<Placemark>
			<name><![CDATA[Yannigan-Blue - 2]]></name>
			<Point>
				<coordinates>-116.06664,37.11375,0</coordinates>
			</Point>
			<Snippet></Snippet>
			<description><![CDATA[<br>Source: Wikipedia article <a href="https://en.wikipedia.org/wiki/Operation_Mandrel#Yannigan-Blue">Operation Mandrel</a>]]></description>
		</Placemark>
		<Placemark>
			<name><![CDATA[Yannigan-Red - 1]]></name>
			<Point>
				<coordinates>-116.06232,37.11631,0</coordinates>
			</Point>
			<Snippet></Snippet>
			<description><![CDATA[<br>Source: Wikipedia article <a href="https://en.wikipedia.org/wiki/Operation_Mandrel#Yannigan-Red">Operation Mandrel</a>]]></description>
		</Placemark>
		<Placemark>
			<name><![CDATA[Yannigan-White - 3]]></name>
			<Point>
				<coordinates>-116.06708,37.11793,0</coordinates>
			</Point>
			<Snippet></Snippet>
			<description><![CDATA[<br>Source: Wikipedia article <a href="https://en.wikipedia.org/wiki/Operation_Mandrel#Yannigan-White">Operation Mandrel</a>]]></description>
		</Placemark>
		<Placemark>
			<name><![CDATA[Cyathus]]></name>
			<Point>
				<coordinates>-116.09266,37.17311,0</coordinates>
			</Point>
			<Snippet></Snippet>
			<description><![CDATA[<br>Source: Wikipedia article <a href="https://en.wikipedia.org/wiki/Operation_Mandrel#Cyathus">Operation Mandrel</a>]]></description>
		</Placemark>
		<Placemark>
			<name><![CDATA[Arabis-Blue - 3]]></name>
			<Point>
				<coordinates>-116.03764,37.13956,0</coordinates>
			</Point>
			<Snippet></Snippet>
			<description><![CDATA[<br>Source: Wikipedia article <a href="https://en.wikipedia.org/wiki/Operation_Mandrel#Arabis-Blue">Operation Mandrel</a>]]></description>
		</Placemark>
		<Placemark>
			<name><![CDATA[Arabis-Green - 2]]></name>
			<Point>
				<coordinates>-116.03488,37.14174,0</coordinates>
			</Point>
			<Snippet></Snippet>
			<description><![CDATA[<br>Source: Wikipedia article <a href="https://en.wikipedia.org/wiki/Operation_Mandrel#Arabis-Green">Operation Mandrel</a>]]></description>
		</Placemark>
		<Placemark>
			<name><![CDATA[Arabis-Red - 1]]></name>
			<Point>
				<coordinates>-116.03218,37.13955,0</coordinates>
			</Point>
			<Snippet></Snippet>
			<description><![CDATA[<br>Source: Wikipedia article <a href="https://en.wikipedia.org/wiki/Operation_Mandrel#Arabis-Red">Operation Mandrel</a>]]></description>
		</Placemark>
		<Placemark>
			<name><![CDATA[Jal]]></name>
			<Point>
				<coordinates>-116.02359,37.00104,0</coordinates>
			</Point>
			<Snippet></Snippet>
			<description><![CDATA[<br>Source: Wikipedia article <a href="https://en.wikipedia.org/wiki/Operation_Mandrel#Jal">Operation Mandrel</a>]]></description>
		</Placemark>
		<Placemark>
			<name><![CDATA[Shaper]]></name>
			<Point>
				<coordinates>-116.02198,37.08618,0</coordinates>
			</Point>
			<Snippet></Snippet>
			<description><![CDATA[<br>Source: Wikipedia article <a href="https://en.wikipedia.org/wiki/Operation_Mandrel#Shaper">Operation Mandrel</a>]]></description>
		</Placemark>
		<Placemark>
			<name><![CDATA[Handley]]></name>
			<Point>
				<coordinates>-116.535,37.30042,0</coordinates>
			</Point>
			<Snippet></Snippet>
			<description><![CDATA[<br>Source: Wikipedia article <a href="https://en.wikipedia.org/wiki/Operation_Mandrel#Handley">Operation Mandrel</a>]]></description>
		</Placemark>
		<Placemark>
			<name><![CDATA[Snubber]]></name>
			<Point>
				<coordinates>-115.98926,37.05451,0</coordinates>
			</Point>
			<Snippet></Snippet>
			<description><![CDATA[<br>Source: Wikipedia article <a href="https://en.wikipedia.org/wiki/Operation_Mandrel#Snubber">Operation Mandrel</a>]]></description>
		</Placemark>
		<Placemark>
			<name><![CDATA[Can-Green - 1]]></name>
			<Point>
				<coordinates>-116.08281,37.11236,0</coordinates>
			</Point>
			<Snippet></Snippet>
			<description><![CDATA[<br>Source: Wikipedia article <a href="https://en.wikipedia.org/wiki/Operation_Mandrel#Can-Green">Operation Mandrel</a>]]></description>
		</Placemark>
		<Placemark>
			<name><![CDATA[Can-Red - 2]]></name>
			<Point>
				<coordinates>-116.08098,37.11554,0</coordinates>
			</Point>
			<Snippet></Snippet>
			<description><![CDATA[<br>Source: Wikipedia article <a href="https://en.wikipedia.org/wiki/Operation_Mandrel#Can-Red">Operation Mandrel</a>]]></description>
		</Placemark>
		<Placemark>
			<name><![CDATA[Beebalm]]></name>
			<Point>
				<coordinates>-116.02892,37.0592,0</coordinates>
			</Point>
			<Snippet></Snippet>
			<description><![CDATA[<br>Source: Wikipedia article <a href="https://en.wikipedia.org/wiki/Operation_Mandrel#Beebalm">Operation Mandrel</a>]]></description>
		</Placemark>
		<Placemark>
			<name><![CDATA[Hod-C (Blue) - 3]]></name>
			<Point>
				<coordinates>-116.03216,37.13843,0</coordinates>
			</Point>
			<Snippet></Snippet>
			<description><![CDATA[<br>Source: Wikipedia article <a href="https://en.wikipedia.org/wiki/Operation_Mandrel#Hod-C_%28Blue%29">Operation Mandrel</a>]]></description>
		</Placemark>
		<Placemark>
			<name><![CDATA[Hod-A (Green) - 1]]></name>
			<Point>
				<coordinates>-116.03492,37.13625,0</coordinates>
			</Point>
			<Snippet></Snippet>
			<description><![CDATA[<br>Source: Wikipedia article <a href="https://en.wikipedia.org/wiki/Operation_Mandrel#Hod-A_%28Green%29">Operation Mandrel</a>]]></description>
		</Placemark>
		<Placemark>
			<name><![CDATA[Hod-B (Red) - 2]]></name>
			<Point>
				<coordinates>-116.03495,37.13295,0</coordinates>
			</Point>
			<Snippet></Snippet>
			<description><![CDATA[<br>Source: Wikipedia article <a href="https://en.wikipedia.org/wiki/Operation_Mandrel#Hod-B_%28Red%29">Operation Mandrel</a>]]></description>
		</Placemark>
		<Placemark>
			<name><![CDATA[Mint Leaf]]></name>
			<Point>
				<coordinates>-116.18441,37.21649,0</coordinates>
			</Point>
			<Snippet></Snippet>
			<description><![CDATA[<br>Source: Wikipedia article <a href="https://en.wikipedia.org/wiki/Operation_Mandrel#Mint_Leaf">Operation Mandrel</a>]]></description>
		</Placemark>
		<Placemark>
			<name><![CDATA[Diamond Dust]]></name>
			<Point>
				<coordinates>-116.20277,37.0104,0</coordinates>
			</Point>
			<Snippet></Snippet>
			<description><![CDATA[<br>Source: Wikipedia article <a href="https://en.wikipedia.org/wiki/Operation_Mandrel#Diamond_Dust">Operation Mandrel</a>]]></description>
		</Placemark>
		<Placemark>
			<name><![CDATA[Cornice-Green - 2]]></name>
			<Point>
				<coordinates>-116.03981,37.16186,0</coordinates>
			</Point>
			<Snippet></Snippet>
			<description><![CDATA[<br>Source: Wikipedia article <a href="https://en.wikipedia.org/wiki/Operation_Mandrel#Cornice-Green">Operation Mandrel</a>]]></description>
		</Placemark>
		<Placemark>
			<name><![CDATA[Cornice-Yellow - 1]]></name>
			<Point>
				<coordinates>-116.03636,37.16588,0</coordinates>
			</Point>
			<Snippet></Snippet>
			<description><![CDATA[<br>Source: Wikipedia article <a href="https://en.wikipedia.org/wiki/Operation_Mandrel#Cornice-Yellow">Operation Mandrel</a>]]></description>
		</Placemark>
		<Placemark>
			<name><![CDATA[Manzanas]]></name>
			<Point>
				<coordinates>-115.99265,37.01214,0</coordinates>
			</Point>
			<Snippet></Snippet>
			<description><![CDATA[<br>Source: Wikipedia article <a href="https://en.wikipedia.org/wiki/Operation_Mandrel#Manzanas">Operation Mandrel</a>]]></description>
		</Placemark>
		<Placemark>
			<name><![CDATA[Morrones]]></name>
			<Point>
				<coordinates>-116.01387,37.07076,0</coordinates>
			</Point>
			<Snippet></Snippet>
			<description><![CDATA[<br>Source: Wikipedia article <a href="https://en.wikipedia.org/wiki/Operation_Mandrel#Morrones">Operation Mandrel</a>]]></description>
		</Placemark>
		<Placemark>
			<name><![CDATA[Hudson Moon]]></name>
			<Point>
				<coordinates>-116.21427,37.18256,0</coordinates>
			</Point>
			<Snippet></Snippet>
			<description><![CDATA[<br>Source: Wikipedia article <a href="https://en.wikipedia.org/wiki/Operation_Mandrel#Hudson_Moon">Operation Mandrel</a>]]></description>
		</Placemark>
		<Placemark>
			<name><![CDATA[Flask-Green - 1]]></name>
			<Point>
				<coordinates>-116.06354,37.11336,0</coordinates>
			</Point>
			<Snippet></Snippet>
			<description><![CDATA[<br>Source: Wikipedia article <a href="https://en.wikipedia.org/wiki/Operation_Mandrel#Flask-Green">Operation Mandrel</a>]]></description>
		</Placemark>
		<Placemark>
			<name><![CDATA[Flask-Red - 3]]></name>
			<Point>
				<coordinates>-116.06757,37.11615,0</coordinates>
			</Point>
			<Snippet></Snippet>
			<description><![CDATA[<br>Source: Wikipedia article <a href="https://en.wikipedia.org/wiki/Operation_Mandrel#Flask-Red">Operation Mandrel</a>]]></description>
		</Placemark>
		<Placemark>
			<name><![CDATA[Flask-Yellow - 2]]></name>
			<Point>
				<coordinates>-116.06364,37.11799,0</coordinates>
			</Point>
			<Snippet></Snippet>
			<description><![CDATA[<br>Source: Wikipedia article <a href="https://en.wikipedia.org/wiki/Operation_Mandrel#Flask-Yellow">Operation Mandrel</a>]]></description>
		</Placemark>
		<Placemark>
			<name><![CDATA[Piton C]]></name>
			<Point>
				<coordinates>-116.03079,37.13842,0</coordinates>
			</Point>
			<Snippet></Snippet>
			<description><![CDATA[<br>Source: Wikipedia article <a href="https://en.wikipedia.org/wiki/Operation_Mandrel#Piton_C">Operation Mandrel</a>]]></description>
		</Placemark>
		<Placemark>
			<name><![CDATA[Piton - 1]]></name>
			<Point>
				<coordinates>-116.03349,37.14393,0</coordinates>
			</Point>
			<Snippet></Snippet>
			<description><![CDATA[<br>Source: Wikipedia article <a href="https://en.wikipedia.org/wiki/Operation_Mandrel#Piton">Operation Mandrel</a>]]></description>
		</Placemark>
		<Placemark>
			<name><![CDATA[Piton - 2]]></name>
			<Point>
				<coordinates>-116.03497,37.14056,0</coordinates>
			</Point>
			<Snippet></Snippet>
			<description><![CDATA[<br>Source: Wikipedia article <a href="https://en.wikipedia.org/wiki/Operation_Mandrel#Piton">Operation Mandrel</a>]]></description>
		</Placemark>
		<Placemark>
			<name><![CDATA[Arnica-Violet - 2]]></name>
			<Point>
				<coordinates>-116.08495,37.11716,0</coordinates>
			</Point>
			<Snippet></Snippet>
			<description><![CDATA[<br>Source: Wikipedia article <a href="https://en.wikipedia.org/wiki/Operation_Mandrel#Arnica-Violet">Operation Mandrel</a>]]></description>
		</Placemark>
		<Placemark>
			<name><![CDATA[Arnica-Yellow - 1]]></name>
			<Point>
				<coordinates>-116.08709,37.11391,0</coordinates>
			</Point>
			<Snippet></Snippet>
			<description><![CDATA[<br>Source: Wikipedia article <a href="https://en.wikipedia.org/wiki/Operation_Mandrel#Arnica-Yellow">Operation Mandrel</a>]]></description>
		</Placemark>
</Document>
</kml>
