<?xml version="1.0" encoding="UTF-8"?>
<kml xmlns="http://earth.google.com/kml/2.1">
<Document>
	<name><![CDATA[Operation Praetorian]]></name>
	<open>1</open>
		<Placemark>
			<name><![CDATA[Paliza]]></name>
			<Point>
				<coordinates>-116.00962,37.08156,0</coordinates>
			</Point>
			<Snippet></Snippet>
			<description><![CDATA[<br>Source: Wikipedia article <a href="https://en.wikipedia.org/wiki/Operation_Praetorian#Paliza">Operation Praetorian</a>]]></description>
		</Placemark>
		<Placemark>
			<name><![CDATA[Tilci]]></name>
			<Point>
				<coordinates>-116.06936,37.07627,0</coordinates>
			</Point>
			<Snippet></Snippet>
			<description><![CDATA[<br>Source: Wikipedia article <a href="https://en.wikipedia.org/wiki/Operation_Praetorian#Tilci">Operation Praetorian</a>]]></description>
		</Placemark>
		<Placemark>
			<name><![CDATA[Akavi]]></name>
			<Point>
				<coordinates>-116.07171,37.14838,0</coordinates>
			</Point>
			<Snippet></Snippet>
			<description><![CDATA[<br>Source: Wikipedia article <a href="https://en.wikipedia.org/wiki/Operation_Praetorian#Akavi">Operation Praetorian</a>]]></description>
		</Placemark>
		<Placemark>
			<name><![CDATA[Caboc]]></name>
			<Point>
				<coordinates>-116.12365,37.11447,0</coordinates>
			</Point>
			<Snippet></Snippet>
			<description><![CDATA[<br>Source: Wikipedia article <a href="https://en.wikipedia.org/wiki/Operation_Praetorian#Caboc">Operation Praetorian</a>]]></description>
		</Placemark>
		<Placemark>
			<name><![CDATA[Jornada]]></name>
			<Point>
				<coordinates>-116.0521,37.09129,0</coordinates>
			</Point>
			<Snippet></Snippet>
			<description><![CDATA[<br>Source: Wikipedia article <a href="https://en.wikipedia.org/wiki/Operation_Praetorian#Jornada">Operation Praetorian</a>]]></description>
		</Placemark>
		<Placemark>
			<name><![CDATA[Molbo]]></name>
			<Point>
				<coordinates>-116.46354,37.22428,0</coordinates>
			</Point>
			<Snippet></Snippet>
			<description><![CDATA[<br>Source: Wikipedia article <a href="https://en.wikipedia.org/wiki/Operation_Praetorian#Molbo">Operation Praetorian</a>]]></description>
		</Placemark>
		<Placemark>
			<name><![CDATA[Hosta]]></name>
			<Point>
				<coordinates>-116.31698,37.34792,0</coordinates>
			</Point>
			<Snippet></Snippet>
			<description><![CDATA[<br>Source: Wikipedia article <a href="https://en.wikipedia.org/wiki/Operation_Praetorian#Hosta">Operation Praetorian</a>]]></description>
		</Placemark>
		<Placemark>
			<name><![CDATA[Tenaja]]></name>
			<Point>
				<coordinates>-116.01063,37.01676,0</coordinates>
			</Point>
			<Snippet></Snippet>
			<description><![CDATA[<br>Source: Wikipedia article <a href="https://en.wikipedia.org/wiki/Operation_Praetorian#Tenaja">Operation Praetorian</a>]]></description>
		</Placemark>
		<Placemark>
			<name><![CDATA[Kryddost]]></name>
			<Point>
				<coordinates>-116.12821,37.11662,0</coordinates>
			</Point>
			<Snippet></Snippet>
			<description><![CDATA[<br>Source: Wikipedia article <a href="https://en.wikipedia.org/wiki/Operation_Praetorian#Kryddost">Operation Praetorian</a>]]></description>
		</Placemark>
		<Placemark>
			<name><![CDATA[Bouschet]]></name>
			<Point>
				<coordinates>-116.04666,37.069,0</coordinates>
			</Point>
			<Snippet></Snippet>
			<description><![CDATA[<br>Source: Wikipedia article <a href="https://en.wikipedia.org/wiki/Operation_Praetorian#Bouschet">Operation Praetorian</a>]]></description>
		</Placemark>
		<Placemark>
			<name><![CDATA[Kesti]]></name>
			<Point>
				<coordinates>-116.01745,37.11418,0</coordinates>
			</Point>
			<Snippet></Snippet>
			<description><![CDATA[<br>Source: Wikipedia article <a href="https://en.wikipedia.org/wiki/Operation_Praetorian#Kesti">Operation Praetorian</a>]]></description>
		</Placemark>
		<Placemark>
			<name><![CDATA[Nebbiolo]]></name>
			<Point>
				<coordinates>-116.37106,37.23616,0</coordinates>
			</Point>
			<Snippet></Snippet>
			<description><![CDATA[<br>Source: Wikipedia article <a href="https://en.wikipedia.org/wiki/Operation_Praetorian#Nebbiolo">Operation Praetorian</a>]]></description>
		</Placemark>
		<Placemark>
			<name><![CDATA[Monterey]]></name>
			<Point>
				<coordinates>-116.07561,37.10234,0</coordinates>
			</Point>
			<Snippet></Snippet>
			<description><![CDATA[<br>Source: Wikipedia article <a href="https://en.wikipedia.org/wiki/Operation_Praetorian#Monterey">Operation Praetorian</a>]]></description>
		</Placemark>
		<Placemark>
			<name><![CDATA[Atrisco]]></name>
			<Point>
				<coordinates>-116.00705,37.08458,0</coordinates>
			</Point>
			<Snippet></Snippet>
			<description><![CDATA[<br>Source: Wikipedia article <a href="https://en.wikipedia.org/wiki/Operation_Praetorian#Atrisco">Operation Praetorian</a>]]></description>
		</Placemark>
		<Placemark>
			<name><![CDATA[Queso]]></name>
			<Point>
				<coordinates>-116.04855,37.18974,0</coordinates>
			</Point>
			<Snippet></Snippet>
			<description><![CDATA[<br>Source: Wikipedia article <a href="https://en.wikipedia.org/wiki/Operation_Praetorian#Queso">Operation Praetorian</a>]]></description>
		</Placemark>
		<Placemark>
			<name><![CDATA[Cerro]]></name>
			<Point>
				<coordinates>-116.0164,37.0197,0</coordinates>
			</Point>
			<Snippet></Snippet>
			<description><![CDATA[<br>Source: Wikipedia article <a href="https://en.wikipedia.org/wiki/Operation_Praetorian#Cerro">Operation Praetorian</a>]]></description>
		</Placemark>
		<Placemark>
			<name><![CDATA[Diamond Ace - 2]]></name>
			<Point>
				<coordinates>-116.20764,37.21197,0</coordinates>
			</Point>
			<Snippet></Snippet>
			<description><![CDATA[<br>Source: Wikipedia article <a href="https://en.wikipedia.org/wiki/Operation_Praetorian#Diamond_Ace">Operation Praetorian</a>]]></description>
		</Placemark>
		<Placemark>
			<name><![CDATA[Huron Landing - 1]]></name>
			<Point>
				<coordinates>-116.20765,37.21197,0</coordinates>
			</Point>
			<Snippet></Snippet>
			<description><![CDATA[<br>Source: Wikipedia article <a href="https://en.wikipedia.org/wiki/Operation_Praetorian#Huron_Landing">Operation Praetorian</a>]]></description>
		</Placemark>
		<Placemark>
			<name><![CDATA[Frisco]]></name>
			<Point>
				<coordinates>-116.08867,37.1747,0</coordinates>
			</Point>
			<Snippet></Snippet>
			<description><![CDATA[<br>Source: Wikipedia article <a href="https://en.wikipedia.org/wiki/Operation_Praetorian#Frisco">Operation Praetorian</a>]]></description>
		</Placemark>
		<Placemark>
			<name><![CDATA[Borrego]]></name>
			<Point>
				<coordinates>-116.04546,37.09123,0</coordinates>
			</Point>
			<Snippet></Snippet>
			<description><![CDATA[<br>Source: Wikipedia article <a href="https://en.wikipedia.org/wiki/Operation_Praetorian#Borrego">Operation Praetorian</a>]]></description>
		</Placemark>
</Document>
</kml>
