<?xml version="1.0" encoding="UTF-8"?>
<kml xmlns="http://earth.google.com/kml/2.1">
<Document>
	<name><![CDATA[Operation Redwing]]></name>
	<open>1</open>
	<Folder>
		<name><![CDATA[Redwing series tests]]></name>
		<open>1</open>
		<Placemark>
			<name><![CDATA[Lacrosse]]></name>
			<Point>
				<coordinates>162.34808,11.55392,0</coordinates>
			</Point>
			<Snippet></Snippet>
			<description><![CDATA[<br>Source: Wikipedia article <a href="https://en.wikipedia.org/wiki/Operation_Redwing#Lacrosse">Operation Redwing</a>]]></description>
		</Placemark>
		<Placemark>
			<name><![CDATA[Cherokee]]></name>
			<Point>
				<coordinates>165.33985,11.73973,0</coordinates>
			</Point>
			<Snippet></Snippet>
			<description><![CDATA[<br>Source: Wikipedia article <a href="https://en.wikipedia.org/wiki/Operation_Redwing#Cherokee">Operation Redwing</a>]]></description>
		</Placemark>
		<Placemark>
			<name><![CDATA[Zuni]]></name>
			<Point>
				<coordinates>165.37049,11.50325,0</coordinates>
			</Point>
			<Snippet></Snippet>
			<description><![CDATA[<br>Source: Wikipedia article <a href="https://en.wikipedia.org/wiki/Operation_Redwing#Zuni">Operation Redwing</a>]]></description>
		</Placemark>
		<Placemark>
			<name><![CDATA[Yuma]]></name>
			<Point>
				<coordinates>162.31935,11.61569,0</coordinates>
			</Point>
			<Snippet></Snippet>
			<description><![CDATA[<br>Source: Wikipedia article <a href="https://en.wikipedia.org/wiki/Operation_Redwing#Yuma">Operation Redwing</a>]]></description>
		</Placemark>
		<Placemark>
			<name><![CDATA[Erie]]></name>
			<Point>
				<coordinates>162.35793,11.53999,0</coordinates>
			</Point>
			<Snippet></Snippet>
			<description><![CDATA[<br>Source: Wikipedia article <a href="https://en.wikipedia.org/wiki/Operation_Redwing#Erie">Operation Redwing</a>]]></description>
		</Placemark>
		<Placemark>
			<name><![CDATA[Seminole]]></name>
			<Point>
				<coordinates>162.210367,11.67226,0</coordinates>
			</Point>
			<Snippet></Snippet>
			<description><![CDATA[<br>Source: Wikipedia article <a href="https://en.wikipedia.org/wiki/Operation_Redwing#Seminole">Operation Redwing</a>]]></description>
		</Placemark>
		<Placemark>
			<name><![CDATA[Blackfoot]]></name>
			<Point>
				<coordinates>162.35252,11.54598,0</coordinates>
			</Point>
			<Snippet></Snippet>
			<description><![CDATA[<br>Source: Wikipedia article <a href="https://en.wikipedia.org/wiki/Operation_Redwing#Blackfoot">Operation Redwing</a>]]></description>
		</Placemark>
		<Placemark>
			<name><![CDATA[Flathead]]></name>
			<Point>
				<coordinates>165.4514,11.6,0</coordinates>
			</Point>
			<Snippet></Snippet>
			<description><![CDATA[<br>Source: Wikipedia article <a href="https://en.wikipedia.org/wiki/Operation_Redwing#Flathead">Operation Redwing</a>]]></description>
		</Placemark>
		<Placemark>
			<name><![CDATA[Osage]]></name>
			<Point>
				<coordinates>162.35408,11.54374,0</coordinates>
			</Point>
			<Snippet></Snippet>
			<description><![CDATA[<br>Source: Wikipedia article <a href="https://en.wikipedia.org/wiki/Operation_Redwing#Osage">Operation Redwing</a>]]></description>
		</Placemark>
		<Placemark>
			<name><![CDATA[Inca]]></name>
			<Point>
				<coordinates>162.28828,11.62831,0</coordinates>
			</Point>
			<Snippet></Snippet>
			<description><![CDATA[<br>Source: Wikipedia article <a href="https://en.wikipedia.org/wiki/Operation_Redwing#Inca">Operation Redwing</a>]]></description>
		</Placemark>
		<Placemark>
			<name><![CDATA[Dakota]]></name>
			<Point>
				<coordinates>165.4514,11.6028,0</coordinates>
			</Point>
			<Snippet></Snippet>
			<description><![CDATA[<br>Source: Wikipedia article <a href="https://en.wikipedia.org/wiki/Operation_Redwing#Dakota">Operation Redwing</a>]]></description>
		</Placemark>
		<Placemark>
			<name><![CDATA[Mohawk]]></name>
			<Point>
				<coordinates>162.29393,11.62717,0</coordinates>
			</Point>
			<Snippet></Snippet>
			<description><![CDATA[<br>Source: Wikipedia article <a href="https://en.wikipedia.org/wiki/Operation_Redwing#Mohawk">Operation Redwing</a>]]></description>
		</Placemark>
		<Placemark>
			<name><![CDATA[Apache]]></name>
			<Point>
				<coordinates>162.19446,11.66451,0</coordinates>
			</Point>
			<Snippet></Snippet>
			<description><![CDATA[<br>Source: Wikipedia article <a href="https://en.wikipedia.org/wiki/Operation_Redwing#Apache">Operation Redwing</a>]]></description>
		</Placemark>
		<Placemark>
			<name><![CDATA[Navajo]]></name>
			<Point>
				<coordinates>165.38263,11.68743,0</coordinates>
			</Point>
			<Snippet></Snippet>
			<description><![CDATA[<br>Source: Wikipedia article <a href="https://en.wikipedia.org/wiki/Operation_Redwing#Navajo">Operation Redwing</a>]]></description>
		</Placemark>
		<Placemark>
			<name><![CDATA[Tewa]]></name>
			<Point>
				<coordinates>165.34042,11.67896,0</coordinates>
			</Point>
			<Snippet></Snippet>
			<description><![CDATA[<br>Source: Wikipedia article <a href="https://en.wikipedia.org/wiki/Operation_Redwing#Tewa">Operation Redwing</a>]]></description>
		</Placemark>
		<Placemark>
			<name><![CDATA[Huron]]></name>
			<Point>
				<coordinates>162.3692,11.6719,0</coordinates>
			</Point>
			<Snippet></Snippet>
			<description><![CDATA[<br>Source: Wikipedia article <a href="https://en.wikipedia.org/wiki/Operation_Redwing#Huron">Operation Redwing</a>]]></description>
		</Placemark>
	</Folder>
</Document>
</kml>
