<?xml version="1.0" encoding="UTF-8"?>
<kml xmlns="http://earth.google.com/kml/2.1">
<Document>
	<name><![CDATA[Operation Toggle]]></name>
	<open>1</open>
		<Placemark>
			<name><![CDATA[Diamond Sculls]]></name>
			<Point>
				<coordinates>-116.18382,37.21439,0</coordinates>
			</Point>
			<Snippet></Snippet>
			<description><![CDATA[<br>Source: Wikipedia article <a href="https://en.wikipedia.org/wiki/Operation_Toggle#Diamond_Sculls">Operation Toggle</a>]]></description>
		</Placemark>
		<Placemark>
			<name><![CDATA[Atarque]]></name>
			<Point>
				<coordinates>-116.01577,37.01247,0</coordinates>
			</Point>
			<Snippet></Snippet>
			<description><![CDATA[<br>Source: Wikipedia article <a href="https://en.wikipedia.org/wiki/Operation_Toggle#Atarque">Operation Toggle</a>]]></description>
		</Placemark>
		<Placemark>
			<name><![CDATA[Cebolla - 1]]></name>
			<Point>
				<coordinates>-116.01976,37.00717,0</coordinates>
			</Point>
			<Snippet></Snippet>
			<description><![CDATA[<br>Source: Wikipedia article <a href="https://en.wikipedia.org/wiki/Operation_Toggle#Cebolla">Operation Toggle</a>]]></description>
		</Placemark>
		<Placemark>
			<name><![CDATA[Cuchillo - 2]]></name>
			<Point>
				<coordinates>-116.01982,37.00373,0</coordinates>
			</Point>
			<Snippet></Snippet>
			<description><![CDATA[<br>Source: Wikipedia article <a href="https://en.wikipedia.org/wiki/Operation_Toggle#Cuchillo">Operation Toggle</a>]]></description>
		</Placemark>
		<Placemark>
			<name><![CDATA[Solano - 3]]></name>
			<Point>
				<coordinates>-116.01757,37.00315,0</coordinates>
			</Point>
			<Snippet></Snippet>
			<description><![CDATA[<br>Source: Wikipedia article <a href="https://en.wikipedia.org/wiki/Operation_Toggle#Solano">Operation Toggle</a>]]></description>
		</Placemark>
		<Placemark>
			<name><![CDATA[Oscuro]]></name>
			<Point>
				<coordinates>-116.03742,37.08201,0</coordinates>
			</Point>
			<Snippet></Snippet>
			<description><![CDATA[<br>Source: Wikipedia article <a href="https://en.wikipedia.org/wiki/Operation_Toggle#Oscuro">Operation Toggle</a>]]></description>
		</Placemark>
		<Placemark>
			<name><![CDATA[Delphinium]]></name>
			<Point>
				<coordinates>-116.08667,37.12135,0</coordinates>
			</Point>
			<Snippet></Snippet>
			<description><![CDATA[<br>Source: Wikipedia article <a href="https://en.wikipedia.org/wiki/Operation_Toggle#Delphinium">Operation Toggle</a>]]></description>
		</Placemark>
		<Placemark>
			<name><![CDATA[Akbar]]></name>
			<Point>
				<coordinates>-116.03405,37.16202,0</coordinates>
			</Point>
			<Snippet></Snippet>
			<description><![CDATA[<br>Source: Wikipedia article <a href="https://en.wikipedia.org/wiki/Operation_Toggle#Akbar">Operation Toggle</a>]]></description>
		</Placemark>
		<Placemark>
			<name><![CDATA[Arsenate]]></name>
			<Point>
				<coordinates>-116.03326,37.12151,0</coordinates>
			</Point>
			<Snippet></Snippet>
			<description><![CDATA[<br>Source: Wikipedia article <a href="https://en.wikipedia.org/wiki/Operation_Toggle#Arsenate">Operation Toggle</a>]]></description>
		</Placemark>
		<Placemark>
			<name><![CDATA[Canna-Limoges - 2]]></name>
			<Point>
				<coordinates>-116.03324,37.13953,0</coordinates>
			</Point>
			<Snippet></Snippet>
			<description><![CDATA[<br>Source: Wikipedia article <a href="https://en.wikipedia.org/wiki/Operation_Toggle#Canna-Limoges">Operation Toggle</a>]]></description>
		</Placemark>
		<Placemark>
			<name><![CDATA[Tuloso]]></name>
			<Point>
				<coordinates>-116.02196,37.03128,0</coordinates>
			</Point>
			<Snippet></Snippet>
			<description><![CDATA[<br>Source: Wikipedia article <a href="https://en.wikipedia.org/wiki/Operation_Toggle#Tuloso">Operation Toggle</a>]]></description>
		</Placemark>
		<Placemark>
			<name><![CDATA[Solanum]]></name>
			<Point>
				<coordinates>-116.03559,37.13804,0</coordinates>
			</Point>
			<Snippet></Snippet>
			<description><![CDATA[<br>Source: Wikipedia article <a href="https://en.wikipedia.org/wiki/Operation_Toggle#Solanum">Operation Toggle</a>]]></description>
		</Placemark>
		<Placemark>
			<name><![CDATA[Flax-Source]]></name>
			<Point>
				<coordinates>-116.08415,37.13997,0</coordinates>
			</Point>
			<Snippet></Snippet>
			<description><![CDATA[<br>Source: Wikipedia article <a href="https://en.wikipedia.org/wiki/Operation_Toggle#Flax-Source">Operation Toggle</a>]]></description>
		</Placemark>
		<Placemark>
			<name><![CDATA[Alumroot]]></name>
			<Point>
				<coordinates>-116.05096,37.14704,0</coordinates>
			</Point>
			<Snippet></Snippet>
			<description><![CDATA[<br>Source: Wikipedia article <a href="https://en.wikipedia.org/wiki/Operation_Toggle#Alumroot">Operation Toggle</a>]]></description>
		</Placemark>
		<Placemark>
			<name><![CDATA[Miera]]></name>
			<Point>
				<coordinates>-116.02759,37.10354,0</coordinates>
			</Point>
			<Snippet></Snippet>
			<description><![CDATA[<br>Source: Wikipedia article <a href="https://en.wikipedia.org/wiki/Operation_Toggle#Miera">Operation Toggle</a>]]></description>
		</Placemark>
		<Placemark>
			<name><![CDATA[Gazook]]></name>
			<Point>
				<coordinates>-116.08779,37.11727,0</coordinates>
			</Point>
			<Snippet></Snippet>
			<description><![CDATA[<br>Source: Wikipedia article <a href="https://en.wikipedia.org/wiki/Operation_Toggle#Gazook">Operation Toggle</a>]]></description>
		</Placemark>
		<Placemark>
			<name><![CDATA[Natoma]]></name>
			<Point>
				<coordinates>-116.05476,37.17783,0</coordinates>
			</Point>
			<Snippet></Snippet>
			<description><![CDATA[<br>Source: Wikipedia article <a href="https://en.wikipedia.org/wiki/Operation_Toggle#Natoma">Operation Toggle</a>]]></description>
		</Placemark>
		<Placemark>
			<name><![CDATA[Angus - 1]]></name>
			<Point>
				<coordinates>-116.0292,37.00483,0</coordinates>
			</Point>
			<Snippet></Snippet>
			<description><![CDATA[<br>Source: Wikipedia article <a href="https://en.wikipedia.org/wiki/Operation_Toggle#Angus">Operation Toggle</a>]]></description>
		</Placemark>
		<Placemark>
			<name><![CDATA[Velarde - 2]]></name>
			<Point>
				<coordinates>-116.02173,36.99367,0</coordinates>
			</Point>
			<Snippet></Snippet>
			<description><![CDATA[<br>Source: Wikipedia article <a href="https://en.wikipedia.org/wiki/Operation_Toggle#Velarde">Operation Toggle</a>]]></description>
		</Placemark>
		<Placemark>
			<name><![CDATA[Colmor]]></name>
			<Point>
				<coordinates>-116.0207,37.01214,0</coordinates>
			</Point>
			<Snippet></Snippet>
			<description><![CDATA[<br>Source: Wikipedia article <a href="https://en.wikipedia.org/wiki/Operation_Toggle#Colmor">Operation Toggle</a>]]></description>
		</Placemark>
		<Placemark>
			<name><![CDATA[Starwort]]></name>
			<Point>
				<coordinates>-116.05937,37.12301,0</coordinates>
			</Point>
			<Snippet></Snippet>
			<description><![CDATA[<br>Source: Wikipedia article <a href="https://en.wikipedia.org/wiki/Operation_Toggle#Starwort">Operation Toggle</a>]]></description>
		</Placemark>
		<Placemark>
			<name><![CDATA[Mesita]]></name>
			<Point>
				<coordinates>-116.01681,37.00626,0</coordinates>
			</Point>
			<Snippet></Snippet>
			<description><![CDATA[<br>Source: Wikipedia article <a href="https://en.wikipedia.org/wiki/Operation_Toggle#Mesita">Operation Toggle</a>]]></description>
		</Placemark>
		<Placemark>
			<name><![CDATA[Rio Blanco - 1]]></name>
			<Point>
				<coordinates>-108.3672,39.79322,0</coordinates>
			</Point>
			<Snippet></Snippet>
			<description><![CDATA[<br>Source: Wikipedia article <a href="https://en.wikipedia.org/wiki/Operation_Toggle#Rio_Blanco">Operation Toggle</a>]]></description>
		</Placemark>
		<Placemark>
			<name><![CDATA[Cabresto]]></name>
			<Point>
				<coordinates>-116.03164,37.078,0</coordinates>
			</Point>
			<Snippet></Snippet>
			<description><![CDATA[<br>Source: Wikipedia article <a href="https://en.wikipedia.org/wiki/Operation_Toggle#Cabresto">Operation Toggle</a>]]></description>
		</Placemark>
		<Placemark>
			<name><![CDATA[Kashan]]></name>
			<Point>
				<coordinates>-116.05689,37.16222,0</coordinates>
			</Point>
			<Snippet></Snippet>
			<description><![CDATA[<br>Source: Wikipedia article <a href="https://en.wikipedia.org/wiki/Operation_Toggle#Kashan">Operation Toggle</a>]]></description>
		</Placemark>
		<Placemark>
			<name><![CDATA[Dido Queen]]></name>
			<Point>
				<coordinates>-116.21599,37.18498,0</coordinates>
			</Point>
			<Snippet></Snippet>
			<description><![CDATA[<br>Source: Wikipedia article <a href="https://en.wikipedia.org/wiki/Operation_Toggle#Dido_Queen">Operation Toggle</a>]]></description>
		</Placemark>
		<Placemark>
			<name><![CDATA[Almendro]]></name>
			<Point>
				<coordinates>-116.34691,37.245,0</coordinates>
			</Point>
			<Snippet></Snippet>
			<description><![CDATA[<br>Source: Wikipedia article <a href="https://en.wikipedia.org/wiki/Operation_Toggle#Almendro">Operation Toggle</a>]]></description>
		</Placemark>
		<Placemark>
			<name><![CDATA[Potrillo]]></name>
			<Point>
				<coordinates>-116.02809,37.09199,0</coordinates>
			</Point>
			<Snippet></Snippet>
			<description><![CDATA[<br>Source: Wikipedia article <a href="https://en.wikipedia.org/wiki/Operation_Toggle#Potrillo">Operation Toggle</a>]]></description>
		</Placemark>
		<Placemark>
			<name><![CDATA[Portulaca]]></name>
			<Point>
				<coordinates>-116.08673,37.14837,0</coordinates>
			</Point>
			<Snippet></Snippet>
			<description><![CDATA[<br>Source: Wikipedia article <a href="https://en.wikipedia.org/wiki/Operation_Toggle#Portulaca">Operation Toggle</a>]]></description>
		</Placemark>
		<Placemark>
			<name><![CDATA[Silene]]></name>
			<Point>
				<coordinates>-116.04179,37.11486,0</coordinates>
			</Point>
			<Snippet></Snippet>
			<description><![CDATA[<br>Source: Wikipedia article <a href="https://en.wikipedia.org/wiki/Operation_Toggle#Silene">Operation Toggle</a>]]></description>
		</Placemark>
</Document>
</kml>
